{
  "elevators": [
    {
      "id": "kimsu_elev1",
      "name": "김수환관 1층 기숙사 엘리베이터",
      "lat": 37.485438,
      "lng": 126.803593
  
    },
    {
      "id": "maria_elev1",
      "name": "마리아관 엘리베이터",
      "lat": 37.486392,
      "lng": 126.802590
  
    },
    {
      "id": "elev1",
      "name": "김수환관 1층 엘리베이터",
      "lat": 37.485232,
      "lng": 126.803287

    },
    {
      "id": "mainbuilding_elev",
      "name": "중앙도서관 엘리베이터 A",
      "lat": 37.486641,
      "lng": 126.799913

    },
    {
      "id": "library_elev",
      "name": "중앙도서관 엘리베이터 B",
      "lat": 37.487054,
      "lng": 126.799779
    
    }
  ]
}
